{"dateDownload":"2024-12-22T20:13:21.637018","itemsReturned":100,"name":"CENTRES EDUCATIUS","nextPageUrl":"sedeibapi/externa/services/centre/?&pageNumber=2&pageSize=100","page":1,"pageSize":100,"totalCount":745,"totalPages":8,"data":[{"adreca":"JESÚS, 15 ","cif":"B57134975","codiIlla":"073","codiMunicipi":"07040","codiOficial":"07013310","cp":"07003","esPublic":false,"latitud":39.579586,"longitud":2.6463354,"mail":"info@academiafleming.com","nom":"ACADEMIA FLEMING","nomEtapa":"Grau superior, Educació secundària per a persones adultes, Prova de batxillerat per a l'accés a la Universitat, Grau mitjà","nomIlla":"Mallorca","nomMunicipi":"Palma","telf1":"971761808","tipusCentreNomCa":"Centre privat de formació professional"},{"adreca":"Gremi Passamaners (Son Rossinyol), 11 2º","cif":"B57178113","codiIlla":"073","codiMunicipi":"07040","codiOficial":"07005647","cp":"07009","esPublic":false,"latitud":39.60281,"longitud":2.6562736,"mail":"adema@educacio.caib.es","nom":"ADEMA, ESCUELA DENTAL DE MALLORCA","nomEtapa":"Grau superior, Formació professional de grau bàsic, Prova de batxillerat per a l'accés a la Universitat, Grau mitjà","nomIlla":"Mallorca","nomMunicipi":"Palma","telf1":"971777131","tipusCentreNomCa":"Col·legi concertat"},{"adreca":"BISBE BERENGUER DE PALOU, 6 ","cif":"S0718038C","codiIlla":"073","codiMunicipi":"07040","codiOficial":"07002774","cp":"07003","esPublic":true,"latitud":39.576595,"longitud":2.646839,"mail":"ceipainamoll@educaib.eu","nom":"AINA MOLL I MARQUÈS","nomEtapa":"Educació primària, Educació infantil","nomIlla":"Mallorca","nomMunicipi":"Palma","telf1":"971710019","tipologia":"B","tipusCentreNomCa":"Col·legi d'educació infantil i primària","web":"https://ceipainamoll.com"},{"adreca":"Gregori Méndel s/n (Parc Bit),  ","cif":"A57358087","codiIlla":"073","codiMunicipi":"07040","codiOficial":"07013528","cp":"07121","esPublic":false,"latitud":39.6394,"longitud":2.629769,"mail":"secretaria@instituciomallorca.org","nom":"AIXA-LLAÜT","nomEtapa":"Educació primària, Educació secundària obligatòria, Prova de batxillerat per a l'accés a la Universitat, Batxillerat, Educació infantil","nomIlla":"Mallorca","nomMunicipi":"Palma","telf1":"971439954","tipusCentreNomCa":"Col·legi concertat"},{"adreca":"MARIA I JOSEP, S/N ","cif":"S0718151D","codiIlla":"073","codiMunicipi":"07039","codiOficial":"07008004","cp":"07440","esPublic":true,"latitud":39.731762,"longitud":3.0513024,"mail":"iesalbuhaira@educaib.eu","nom":"ALBUHAIRA","nomEtapa":"Educació secundària obligatòria, Prova d'accés a cicle de grau superior, Grau superior, Prova de batxillerat per a l'accés a la Universitat, Batxillerat, Grau mitjà","nomIlla":"Mallorca","nomMunicipi":"Muro","telf1":"971860560","tipologia":"B","tipusCentreNomCa":"Institut d'educació secundària","web":"www.iesalbuhaira.cat"},{"adreca":"ANTONI MARIA ALCOVER, S/N ","cif":"S0718156C","codiIlla":"073","codiMunicipi":"07003","codiOficial":"07007851","cp":"07400","esPublic":true,"latitud":39.843273,"longitud":3.1233144,"mail":"iesalcudia@educaib.eu","nom":"ALCÚDIA","nomEtapa":"Educació secundària obligatòria, Prova d'accés a cicle de grau mitjà, Grau superior, Formació professional de grau bàsic, Prova de batxillerat per a l'accés a la Universitat, Batxillerat, Grau mitjà","nomIlla":"Mallorca","nomMunicipi":"Alcúdia","telf1":"971548600","tipologia":"A","tipusCentreNomCa":"Institut d'educació secundària"},{"adreca":"BENNASSAR, 8 ","cif":"S0718202E","codiIlla":"073","codiMunicipi":"07003","codiOficial":"07008247","cp":"07400","esPublic":true,"latitud":39.852806,"longitud":3.1206617,"mail":"cepaalcudia@educaib.eu","nom":"ALCÚDIA","nomEtapa":"Acollida lingüística , Educació secundària per a persones adultes, Ensenyaments inicials, Mòduls","nomIlla":"Mallorca","nomMunicipi":"Alcúdia","telf1":"971548488","tipologia":"C","tipusCentreNomCa":"Centre d'educació de persones adultes","web":"www.cepaalcudia.com"},{"adreca":"FINESTRES VERDES (DE LES), 17 -","cif":"S0718134J","codiIlla":"073","codiMunicipi":"07040","codiOficial":"07002907","cp":"07006","esPublic":true,"latitud":39.566933,"longitud":2.662146,"mail":"ceipalexandrerossello@educaib.eu","nom":"ALEXANDRE ROSSELLÓ","nomEtapa":"Educació primària, Educació infantil","nomIlla":"Mallorca","nomMunicipi":"Palma","telf1":"971771694","tipologia":"D","tipusCentreNomCa":"Col·legi d'educació infantil i primària","web":"www.ceipalexandrerossello.com"},{"adreca":"GUILLEM DE MONTGRI, DE, s/n ","cif":"S0718131F","codiIlla":"074","codiMunicipi":"07048","codiOficial":"07007929","cp":"07817","esPublic":true,"latitud":38.8985,"longitud":1.4005,"mail":"iesalgarb@educaib.eu","nom":"ALGARB","nomEtapa":"Educació secundària obligatòria, Prova d'accés a cicle de grau superior, Ensenyaments esportius, Grau superior, Formació professional de grau bàsic, Prova de batxillerat per a l'accés a la Universitat, Batxillerat, Grau mitjà","nomIlla":"Eivissa","nomMunicipi":"Sant Josep de Sa Talaia","telf1":"971306866","tipologia":"A","tipusCentreNomCa":"Institut d'educació secundària","web":"www.iesalgarb.es"},{"adreca":"de Sóller, Km.3 ","codiIlla":"073","codiMunicipi":"07040","codiOficial":"07013279","cp":"07120","esPublic":true,"latitud":39.59919,"longitud":2.6534128,"mail":"cepaamanecer1@gmail.com","nom":"AMANECER","nomEtapa":"Educació secundària per a persones adultes, Ensenyaments inicials, Mòduls","nomIlla":"Mallorca","nomMunicipi":"Palma","telf1":"971224200","tipologia":"C","tipusCentreNomCa":"Centre d'educació de persones adultes"},{"adreca":"ESCOLA, DE S', 3 ","cif":"S0718106H","codiIlla":"072","codiMunicipi":"07064","codiOficial":"07005751","cp":"07720","esPublic":true,"latitud":39.875954,"longitud":4.2875004,"mail":"ceipangelruizipablo@educaib.eu","nom":"ANGEL RUIZ I PABLO","nomEtapa":"Educació primària, Educació infantil","nomIlla":"Menorca","nomMunicipi":"Es Castell","telf1":"971363454","tipologia":"C","tipusCentreNomCa":"Col·legi d'educació infantil i primària","web":"https://sites.google.com/site/ceipangelruisipablo"},{"adreca":"SANT LLORENÇ, 77 ","cif":"B57549958","codiIlla":"073","codiMunicipi":"07031","codiOficial":"07013760","cp":"07620","esPublic":false,"latitud":39.486286,"longitud":2.8942268,"mail":"info@eiangelets.es","nom":"ANGELETS 2008","nomEtapa":"Educació infantil","nomIlla":"Mallorca","nomMunicipi":"Llucmajor","telf1":"971661594","tipusCentreNomCa":"Centre d'educació infantil"},{"adreca":"JORGE SEPULVEDA, 5 Bjos","cif":"45695264z","codiIlla":"073","codiMunicipi":"07040","codiOficial":"07015513","cp":"07010","esPublic":false,"latitud":39.58988,"longitud":2.6450455,"mail":"ceiangeletsdellum@gmail.com","nom":"ANGELETS DE LLUM","nomEtapa":"Educació infantil","nomIlla":"Mallorca","nomMunicipi":"Palma","telf1":"971202523","tipusCentreNomCa":"Centre d'educació infantil","web":"www.angeletsdellum.com"},{"adreca":"de Girona, 43-45 ","cif":"B57874323","codiIlla":"073","codiMunicipi":"07013","codiOficial":"07014557","cp":"07630","esPublic":false,"latitud":39.43704,"longitud":3.019541,"mail":"CEIANGELETSDELLUM@GMAIL.COM","nom":"ANGELETS DE LLUM CAMPOS","nomEtapa":"Educació infantil","nomIlla":"Mallorca","nomMunicipi":"Campos","telf1":"971652665","tipusCentreNomCa":"Centre d'educació infantil","web":"http://www.angeletsdellum.com"},{"adreca":"CAP BLANC, 15 ","cif":"S0718122E","codiIlla":"073","codiMunicipi":"07040","codiOficial":"07004321","cp":"07011","esPublic":true,"latitud":39.602932,"longitud":2.615996,"mail":"ceipanselmturmeda@educaib.eu","nom":"ANSELM TURMEDA","nomEtapa":"Educació primària, Educació infantil","nomIlla":"Mallorca","nomMunicipi":"Palma","telf1":"971791388","tipologia":"E","tipusCentreNomCa":"Col·legi d'educació infantil i primària","web":"https://sites.google.com/view/ceipanselmturmeda/inici"},{"adreca":"SANTA EULALIA, 89 ","cif":"S0718042E","codiIlla":"072","codiMunicipi":"07032","codiOficial":"07001812","cp":"07702","esPublic":true,"latitud":39.885372,"longitud":4.270463,"mail":"ceipantonijuanalemany@educaib.eu","nom":"ANTONI JUAN ALEMANY","nomEtapa":"Educació primària, Educació infantil","nomIlla":"Menorca","nomMunicipi":"Maó","telf1":"971364842","tipologia":"D","tipusCentreNomCa":"Col·legi d'educació infantil i primària","web":"www.ceipantonijuanalemany.org"},{"adreca":"PERU, 4 ","cif":"S0718022G","codiIlla":"073","codiMunicipi":"07040","codiOficial":"07003894","cp":"07007","esPublic":true,"latitud":39.567326,"longitud":2.6705308,"mail":"iesantonimaura@educaib.eu","nom":"ANTONI MAURA","nomEtapa":"Educació secundària obligatòria, Grau superior, Educació secundària per a persones adultes, Prova de batxillerat per a l'accés a la Universitat, Batxillerat","nomIlla":"Mallorca","nomMunicipi":"Palma","telf1":"971242034","tipologia":"A","tipusCentreNomCa":"Institut d'educació secundària","web":"https://www.iesantonimaura.net/"},{"adreca":"ALFONS XIII, 10 ","codiIlla":"073","codiMunicipi":"07058","codiOficial":"07016475","cp":"07316","esPublic":false,"latitud":39.765087,"longitud":2.932637,"mail":"escoletaantonipons@ajselva.net","nom":"ANTONI PONS","nomEtapa":"Educació infantil","nomIlla":"Mallorca","nomMunicipi":"Selva","telf1":"971875326","tipusCentreNomCa":"Escola infantil (entitats locals)"},{"adreca":"PASSATGE DE BAIX DE SA RIBA, S/N ","cif":"S0718150F","codiIlla":"073","codiMunicipi":"07028","codiOficial":"07001599","cp":"07518","esPublic":true,"latitud":39.618202,"longitud":2.9771607,"mail":"ceipantoniaalzina@educaib.eu","nom":"ANTÒNIA ALZINA","nomEtapa":"Educació primària, Educació infantil","nomIlla":"Mallorca","nomMunicipi":"Lloret de Vista Alegre","telf1":"971524291","tipologia":"D","tipusCentreNomCa":"Col·legi d'educació infantil i primària"},{"adreca":"de Lepanto, s/n ","cif":"F57583130","codiIlla":"072","codiMunicipi":"07037","codiOficial":"07013942","cp":"07740","esPublic":false,"latitud":39.985977,"longitud":4.0929384,"mail":"escoletainfantildesmercadal@yahoo.es","nom":"ARC DE SANT MARTÍ","nomEtapa":"Educació infantil","nomIlla":"Menorca","nomMunicipi":"Es Mercadal","telf1":"971375440","tipusCentreNomCa":"Escola infantil (entitats locals)"},{"adreca":"PABLO IGLESIAS, 4 ","cif":"R0700085D","codiIlla":"073","codiMunicipi":"07040","codiOficial":"07003501","cp":"07004","esPublic":false,"latitud":39.579407,"longitud":2.6529756,"mail":"direccio@arcangelsantrafel.com","nom":"ARCÀNGEL SANT RAFEL","nomEtapa":"Educació primària, Educació secundària obligatòria, Educació infantil","nomIlla":"Mallorca","nomMunicipi":"Palma","telf1":"971756514","tipusCentreNomCa":"Col·legi concertat"},{"adreca":"PERE AMOROS, DE, 4 ","cif":"S0700087J","codiIlla":"073","codiMunicipi":"07006","codiOficial":"07008171","cp":"07570","esPublic":true,"latitud":39.69518,"longitud":3.3449292,"mail":"cepaarta@gmail.com","nom":"ARTÀ","nomEtapa":"Acollida lingüística , Educació secundària per a persones adultes, Ensenyaments inicials, Mòduls, Grau mitjà","nomIlla":"Mallorca","nomMunicipi":"Artà","telf1":"971829300","tipologia":"D","tipusCentreNomCa":"Centre d'educació de persones adultes","web":"cepaarta.cat"},{"adreca":"GILABERT CENTELLES, 12 ","cif":"S0718018E","codiIlla":"073","codiMunicipi":"07040","codiOficial":"07007930","cp":"07005","esPublic":true,"latitud":39.574493,"longitud":2.6563303,"mail":"iesarxiduc@educaib.eu","nom":"ARXIDUC LLUÍS SALVADOR","nomEtapa":"Educació secundària obligatòria, Educació especial: Educació bàsica, Prova d'accés a cicle de grau mitjà, Grau superior, Formació professional de grau bàsic, Prova de batxillerat per a l'accés a la Universitat, Batxillerat, Grau mitjà","nomIlla":"Mallorca","nomMunicipi":"Palma","telf1":"971466391","tipologia":"B","tipusCentreNomCa":"Institut d'educació secundària","web":"www.iesarxiduc.net"},{"adreca":"GREMI DE BOTERS, 21 ","cif":"G57658601","codiIlla":"073","codiMunicipi":"07040","codiOficial":"07013188","cp":"07009","esPublic":false,"latitud":39.60711,"longitud":2.6667514,"mail":"escoleta@asima.com","nom":"ASIMA","nomEtapa":"Educació infantil","nomIlla":"Mallorca","nomMunicipi":"Palma","telf1":"971433493","tipusCentreNomCa":"Centre d'educació infantil"},{"adreca":"ANDREU TORRENS, 5 ","cif":"B16515223","codiIlla":"073","codiMunicipi":"07040","codiOficial":"07016694","cp":"07011","esPublic":false,"latitud":39.579533,"longitud":2.6403604,"mail":"atlasescoleta@hotmail.com","nom":"ATLAS ESCOLETA","nomEtapa":"Educació infantil","nomIlla":"Mallorca","nomMunicipi":"Palma","telf1":"653386808","tipusCentreNomCa":"Centre d'educació infantil"},{"adreca":"CAN VALERO, 19 ","cif":"F07083595","codiIlla":"073","codiMunicipi":"07040","codiOficial":"07006767","cp":"07011","esPublic":false,"latitud":39.598454,"longitud":2.6324809,"mail":"aulabalear@aulabalear.org","nom":"AULA BALEAR","nomEtapa":"Educació primària, Educació secundària obligatòria, Grau superior, Prova de batxillerat per a l'accés a la Universitat, Batxillerat, Grau mitjà, Educació infantil","nomIlla":"Mallorca","nomMunicipi":"Palma","telf1":"971202301","tipusCentreNomCa":"Col·legi concertat"},{"adreca":"de Sant Lluís, s/n ","codiIlla":"072","codiMunicipi":"07032","codiOficial":"07014168","cp":"07712","esPublic":true,"latitud":39.866272,"longitud":4.2589407,"mail":"cepajoanmirimir@educacio.caib.es","nom":"AULA CAMÍ DE MALBÚGER","nomEtapa":"Educació secundària per a persones adultes, Ensenyaments inicials, Mòduls","nomIlla":"Menorca","nomMunicipi":"Maó","tipusCentreNomCa":"Centre d'educació de persones adultes"},{"adreca":"COLL DES PALMER, DES, 4 ","codiIlla":"072","codiMunicipi":"07002","codiOficial":"07015318","cp":"07730","esPublic":true,"latitud":39.934483,"longitud":4.139861,"mail":"centre@cepajoanmirimir.es","nom":"AULA D'ALAIOR","nomEtapa":"Acollida lingüística , Educació secundària per a persones adultes, Ensenyaments inicials, Mòduls","nomIlla":"Menorca","nomMunicipi":"Alaior","telf1":"971372005","tipusCentreNomCa":"Centre d'educació de persones adultes"},{"adreca":"Balanguera (antes Primo de Rivera), 13 ","codiIlla":"073","codiMunicipi":"07005","codiOficial":"07001265","cp":"07150","esPublic":true,"latitud":39.57674,"longitud":2.4201596,"mail":"escola-adults@andratx.cat","nom":"AULA D'ANDRATX","nomEtapa":"Educació secundària per a persones adultes, Mòduls","nomIlla":"Mallorca","nomMunicipi":"Andratx","tipusCentreNomCa":"Centre d'educació de persones adultes"},{"adreca":"BINIATAP, DE, s/n ","codiIlla":"072","codiMunicipi":"07064","codiOficial":"07015331","cp":"07720","esPublic":true,"latitud":39.879986,"longitud":4.2772703,"mail":"centre@cepajoanmirimir.es","nom":"AULA D'ES CASTELL","nomEtapa":"Acollida lingüística , Ensenyaments inicials, Mòduls","nomIlla":"Menorca","nomMunicipi":"Es Castell","tipusCentreNomCa":"Centre d'educació de persones adultes"},{"adreca":"RONDA DE SES COSTES, 22 ","codiIlla":"072","codiMunicipi":"07037","codiOficial":"07015321","cp":"07740","esPublic":true,"latitud":39.986187,"longitud":4.0958643,"mail":"cepaciutadella@educaib.eu","nom":"AULA D'ES MERCADAL","nomEtapa":"Acollida lingüística , Educació secundària per a persones adultes, Ensenyaments inicials, Mòduls","nomIlla":"Menorca","nomMunicipi":"Es Mercadal","telf1":"608168646","tipusCentreNomCa":"Centre d'educació de persones adultes"},{"adreca":"MALAGARBA, SA, s/n ","codiIlla":"072","codiMunicipi":"07902","codiOficial":"07015355","cp":"07749","esPublic":true,"latitud":39.94441,"longitud":4.046415,"mail":"cepaciutadella@educaib.eu","nom":"AULA D'ES MIGJORN GRAN","nomEtapa":"Ensenyaments inicials, Mòduls","nomIlla":"Menorca","nomMunicipi":"Es Migjorn Gran","telf1":"617323011","tipusCentreNomCa":"Centre d'educació de persones adultes"},{"adreca":"MAR, DEL, s/n ","codiIlla":"073","codiMunicipi":"07014","codiOficial":"07015392","cp":"07580","esPublic":true,"latitud":39.713795,"longitud":3.4604354,"mail":"cepaarta@gmail.com","nom":"AULA DE CAPDEPERA","nomEtapa":"Mòduls","nomIlla":"Mallorca","nomMunicipi":"Capdepera","tipusCentreNomCa":"Centre d'educació de persones adultes"},{"adreca":"de Vilafranca (IES Felanitx), s/n ","codiIlla":"073","codiMunicipi":"07022","codiOficial":"07000625","cp":"07200","esPublic":true,"latitud":39.470093,"longitud":3.1528587,"mail":"cepasud@educaib.eu","nom":"AULA DE FELANITX","nomEtapa":"Acollida lingüística , Ensenyaments inicials, Mòduls","nomIlla":"Mallorca","nomMunicipi":"Felanitx","tipusCentreNomCa":"Centre d'educació de persones adultes"},{"adreca":"SON MORERA, s/n ","codiIlla":"072","codiMunicipi":"07023","codiOficial":"07001046","cp":"07750","esPublic":true,"latitud":39.982178,"longitud":4.013899,"mail":"cepaciutadella@educaib.eu","nom":"AULA DE FERRERIES","nomEtapa":"Acollida lingüística , Educació secundària per a persones adultes, Ensenyaments inicials, Mòduls","nomIlla":"Menorca","nomMunicipi":"Ferreries","telf1":"659959878","tipusCentreNomCa":"Centre d'educació de persones adultes"},{"adreca":"de Portossaler, s/n ","codiIlla":"071","codiMunicipi":"07024","codiOficial":"07015367","cp":"07860","esPublic":true,"mail":"cepapitiuses@educaib.eu","nom":"AULA DE FORMENTERA","nomEtapa":"Acollida lingüística , Ensenyaments inicials, Mòduls","nomIlla":"Formentera","nomMunicipi":"Formentera","tipusCentreNomCa":"Centre d'educació de persones adultes","web":"www.cepapitiuses.com"},{"adreca":"de Joan Massanet, 51 ","codiIlla":"073","codiMunicipi":"07039","codiOficial":"07015379","cp":"07440","esPublic":true,"latitud":39.738476,"longitud":3.0535402,"mail":"cepasapobla@educaib.eu","nom":"AULA DE MURO","nomEtapa":"Educació secundària per a persones adultes","nomIlla":"Mallorca","nomMunicipi":"Muro","tipusCentreNomCa":"Centre d'educació de persones adultes","web":"https://cepasapobla.com"},{"adreca":"SANT LLUIS, 56 2n","codiIlla":"072","codiMunicipi":"07052","codiOficial":"07015343","cp":"07710","esPublic":true,"mail":"centre@cepajoanmirimir.es","nom":"AULA DE SANT LLUÍS","nomEtapa":"Acollida lingüística , Mòduls","nomIlla":"Menorca","nomMunicipi":"Sant Lluís","telf1":"971177800","tipusCentreNomCa":"Centre d'educació de persones adultes"},{"adreca":"Marià Villangómez, 26 ","codiIlla":"074","codiMunicipi":"07054","codiOficial":"07008201","cp":"07840","esPublic":true,"mail":"cepapitiuses@educaib.eu","nom":"AULA DE SANTA EULÀRIA","nomEtapa":"Acollida lingüística , Ensenyaments inicials, Mòduls","nomIlla":"Eivissa","nomMunicipi":"Santa Eulària","tipusCentreNomCa":"Centre d'educació de persones adultes","web":"www.cepapitiuses.com"},{"adreca":"SANT ANTONI, DE, 23 ","codiIlla":"073","codiMunicipi":"07062","codiOficial":"07008168","cp":"07550","esPublic":true,"latitud":39.623158,"longitud":3.359424,"mail":"cepaarta@gmail.com","nom":"AULA DE SON SERVERA","nomEtapa":"Educació secundària per a persones adultes, Ensenyaments inicials, Mòduls","nomIlla":"Mallorca","nomMunicipi":"Son Servera","tipusCentreNomCa":"Centre d'educació de persones adultes"},{"adreca":"ANIMES, DE LES, 17 ","codiIlla":"073","codiMunicipi":"07061","codiOficial":"07013917","cp":"07100","esPublic":true,"latitud":39.766796,"longitud":2.717396,"mail":"cepacamprodo@educaib.eu","nom":"AULA DE SÓLLER","nomEtapa":"Ensenyaments inicials, Mòduls","nomIlla":"Mallorca","nomMunicipi":"Sóller","telf1":"971630340","tipusCentreNomCa":"Centre d'educació de persones adultes","web":"www.cepacamprodo.cat"},{"adreca":"Can Fita,  ","codiIlla":"074","codiMunicipi":"07048","codiOficial":"07015483","cp":"07817","esPublic":true,"latitud":38.910553,"longitud":1.403858,"mail":"cepapitiuses@educacio.caib.es","nom":"AULA DE VILA","nomEtapa":"Acollida lingüística , Ensenyaments inicials, Mòduls","nomIlla":"Eivissa","nomMunicipi":"Sant Josep de Sa Talaia","tipusCentreNomCa":"Centre d'educació de persones adultes","web":"www.cepapitiuses.com"},{"adreca":"AMER, 46 ","cif":"Q0768273E","codiIlla":"073","codiMunicipi":"07040","codiOficial":"07007942","cp":"07007","esPublic":true,"latitud":39.569233,"longitud":2.6750114,"mail":"cpiesoaurorapicornell@educaib.eu","nom":"AURORA PICORNELL","nomEtapa":"Educació primària, Educació secundària obligatòria, Formació professional de grau bàsic","nomIlla":"Mallorca","nomMunicipi":"Palma","telf1":"971420029","tipologia":"C","tipusCentreNomCa":"Col·legi d'educació infantil i primària integrat amb educació secundària obligatòria"},{"adreca":"GUASP, 72 ","cif":"43130283Q","codiIlla":"073","codiMunicipi":"07040","codiOficial":"07014648","cp":"07007","esPublic":false,"latitud":39.554516,"longitud":2.6981554,"mail":"infocei@escoletababeritos.es","nom":"BABERITOS","nomEtapa":"Educació infantil","nomIlla":"Mallorca","nomMunicipi":"Palma","telf1":"620222098","tipusCentreNomCa":"Centre d'educació infantil"},{"adreca":"CAN BARO, 9 ","cif":"43130283Q","codiIlla":"073","codiMunicipi":"07040","codiOficial":"07015501","cp":"07014","esPublic":false,"latitud":39.571022,"longitud":2.6317954,"mail":"infocei@escoletababeritos.es","nom":"BABERITOS TENIS","nomEtapa":"Educació infantil","nomIlla":"Mallorca","nomMunicipi":"Palma","telf1":"620222098","tipusCentreNomCa":"Centre d'educació infantil"},{"adreca":"CAPELLETA, DE SA, 11 baixos","cif":"E57917783","codiIlla":"074","codiMunicipi":"07026","codiOficial":"07015562","cp":"07800","esPublic":false,"latitud":38.90683,"longitud":1.4312735,"mail":"hello@babylandibiza.com","nom":"BABYLAND EIVISSA","nomEtapa":"Educació infantil","nomIlla":"Eivissa","nomMunicipi":"Eivissa","tipusCentreNomCa":"Centre d'educació infantil"},{"adreca":"FRAGATA, 6 ","cif":"S0718108D","codiIlla":"073","codiMunicipi":"07031","codiOficial":"07008041","cp":"07609","esPublic":true,"latitud":39.424175,"longitud":2.7536314,"mail":"ceipbadies@educaib.eu","nom":"BADIES","nomEtapa":"Educació primària, Educació infantil","nomIlla":"Mallorca","nomMunicipi":"Llucmajor","telf1":"971741365","tipologia":"C","tipusCentreNomCa":"Col·legi d'educació infantil i primària","web":"http://blocdecentre.blogspot.com/"},{"adreca":"D'EIVISSA, S/N ","cif":"S0718135G","codiIlla":"074","codiMunicipi":"07050","codiOficial":"07004931","cp":"07815","esPublic":true,"latitud":39.049408,"longitud":1.4346063,"mail":"ceipbalansat@educaib.eu","nom":"BALANSAT","nomEtapa":"Educació primària, Educació infantil","nomIlla":"Eivissa","nomMunicipi":"Sant Joan de Labritja","telf1":"971334870","tipologia":"D","tipusCentreNomCa":"Col·legi d'educació infantil i primària","web":"www.ceipbalansat.com"},{"adreca":"CALA FIGUERA (SA PORRASSA, 3 ","cif":"B07006349","codiIlla":"073","codiMunicipi":"07011","codiOficial":"07006445","cp":"07181","esPublic":false,"latitud":39.551224,"longitud":2.5693338,"mail":"administration@balearesint.net","nom":"BALEARES INTERNATIONAL COLLEGE","nomEtapa":"Educació secundària obligatòria, Educació primària, Batxillerat, Educació infantil","nomIlla":"Mallorca","nomMunicipi":"Calvià","telf1":"971133167","tipusCentreNomCa":"Centre docent estranger","web":"https://balearesint.net/campuses/sa-porassa-campus"},{"adreca":"de Marià Villangómez, 17 ","codiIlla":"073","codiMunicipi":"07040","codiOficial":"07015768","cp":"07015","esPublic":false,"nom":"BALEARES INTERNATIONAL COLLEGE SAN AGUSTÍN","nomEtapa":"Educació primària, Educació infantil","nomIlla":"Mallorca","nomMunicipi":"Palma","tipusCentreNomCa":"Centre docent estranger"},{"adreca":"PERE II, 42 ","cif":"B07929409","codiIlla":"073","codiMunicipi":"07040","codiOficial":"07003456","cp":"07007","esPublic":false,"latitud":39.57195,"longitud":2.6697035,"mail":"col.legibalmes@telefonica.net","nom":"BALMES","nomEtapa":"Educació primària, Educació especial: Educació bàsica, Educació infantil","nomIlla":"Mallorca","nomMunicipi":"Palma","telf1":"971242700","tipusCentreNomCa":"Col·legi concertat","web":"colegiobalmes.com"},{"adreca":"SON PRIM, S/N ","cif":"S0718127D","codiIlla":"073","codiMunicipi":"07005","codiOficial":"07008338","cp":"07150","esPublic":true,"latitud":39.572,"longitud":2.424,"mail":"iesbaltasarporcel@educaib.eu","nom":"BALTASAR PORCEL","nomEtapa":"Educació secundària obligatòria, Formació professional de grau bàsic, Prova de batxillerat per a l'accés a la Universitat, Batxillerat","nomIlla":"Mallorca","nomMunicipi":"Andratx","telf1":"971136768","tipologia":"C","tipusCentreNomCa":"Institut d'educació secundària","web":"https://iesbaltasarporcel.net/"},{"adreca":"Finca Can Xic Tonió, s/n ","cif":"S0700044A","codiIlla":"074","codiMunicipi":"07050","codiOficial":"07012962","cp":"07812","esPublic":true,"latitud":39.02844,"longitud":1.4765962,"mail":"iesbalafia@educaib.eu","nom":"BALÀFIA","nomEtapa":"Educació secundària obligatòria, Formació professional de grau bàsic, Prova de batxillerat per a l'accés a la Universitat, Batxillerat, Grau mitjà","nomIlla":"Eivissa","nomMunicipi":"Sant Joan de Labritja","telf1":"971333489","tipologia":"B","tipusCentreNomCa":"Institut d'educació secundària"},{"adreca":"FRANCESCA HOMAR I PASCUAL, DE, 20 ","cif":"S0718080E","codiIlla":"073","codiMunicipi":"07016","codiOficial":"07000881","cp":"07330","esPublic":true,"latitud":39.6701,"longitud":2.807833,"mail":"ceipbartomeuordines@educaib.eu","nom":"BARTOMEU ORDINES","nomEtapa":"Educació primària, Educació infantil","nomIlla":"Mallorca","nomMunicipi":"Consell","telf1":"971622051","tipologia":"C","tipusCentreNomCa":"Col·legi d'educació infantil i primària"},{"adreca":"SANTIAGO RUSIÑOL, 217 ","cif":"G57562373","codiIlla":"073","codiMunicipi":"07027","codiOficial":"07001541","cp":"07300","esPublic":false,"latitud":39.71784,"longitud":2.902181,"mail":"beata@bfcinca.net","nom":"BEATA FRANCINAINA CIRER","nomEtapa":"Educació primària, Educació infantil","nomIlla":"Mallorca","nomMunicipi":"Inca","telf1":"971500953","tipusCentreNomCa":"Col·legi concertat","web":"beatafcirer.fecib.net"},{"adreca":"VENT, 10 ","cif":"R0700169F","codiIlla":"073","codiMunicipi":"07027","codiOficial":"07001526","cp":"07300","esPublic":false,"latitud":39.718616,"longitud":2.91337,"mail":"centre@beatramonllull.org","nom":"BEATO RAMÓN LLULL","nomEtapa":"Educació primària, Educació secundària obligatòria, Prova de batxillerat per a l'accés a la Universitat, Batxillerat, Educació infantil","nomIlla":"Mallorca","nomMunicipi":"Inca","telf1":"971500100","tipusCentreNomCa":"Col·legi concertat"},{"adreca":"CANONGE PAYERAS, 2 ","cif":"E57912404","codiIlla":"073","codiMunicipi":"07027","codiOficial":"07015161","cp":"07300","esPublic":false,"latitud":39.722336,"longitud":2.9045916,"mail":"escoleta.bellaaurora@gmail.com","nom":"BELLA AURORA","nomEtapa":"Educació infantil","nomIlla":"Mallorca","nomMunicipi":"Inca","telf1":"971502872","tipusCentreNomCa":"Centre d'educació infantil"},{"adreca":"JOSEP COSTA I FERRER, 5 ","codiIlla":"073","codiMunicipi":"07040","codiOficial":"07006411","cp":"07015","esPublic":false,"latitud":39.46411,"longitud":2.6558,"mail":"info@bellvercollege.com","nom":"BELLVER INTERNATIONAL SCHOOL","nomEtapa":"Educació secundària obligatòria, Educació primària, Batxillerat, Educació infantil","nomIlla":"Mallorca","nomMunicipi":"Palma","tipusCentreNomCa":"Centre docent estranger"},{"adreca":"ARQUITECTE F CASAS, 14 ","cif":"S0718112F","codiIlla":"073","codiMunicipi":"07011","codiOficial":"07006263","cp":"07181","esPublic":true,"latitud":39.539528,"longitud":2.5881386,"mail":"ceipbendinat@educaib.eu","nom":"BENDINAT","nomEtapa":"Educació primària, Educació infantil","nomIlla":"Mallorca","nomMunicipi":"Calvià","telf1":"971700127","tipologia":"C","tipusCentreNomCa":"Col·legi d'educació infantil i primària"},{"adreca":"Arquitecte Francesc Casas, 13 ","cif":"Q0700430B","codiIlla":"073","codiMunicipi":"07011","codiOficial":"07008855","cp":"07181","esPublic":true,"latitud":39.539413,"longitud":2.5852954,"mail":"iesbendinat@educaib.eu","nom":"BENDINAT","nomEtapa":"Educació secundària obligatòria, Educació especial: Educació bàsica, Prova d'accés a cicle de grau mitjà, Grau superior, Prova de batxillerat per a l'accés a la Universitat, Batxillerat, Grau mitjà","nomIlla":"Mallorca","nomMunicipi":"Calvià","telf1":"971402565","tipologia":"A","tipusCentreNomCa":"Institut d'educació secundària","web":"https://sites.google.com/iesbendinat.org/iesbendinat/"},{"adreca":"carrer de les escoles, 4 ","cif":"Q0700491D","codiIlla":"073","codiMunicipi":"07011","codiOficial":"07013051","cp":"07181","esPublic":false,"latitud":39.492516,"longitud":2.518959,"mail":"eibendinat@calvia.com","nom":"BENDINAT","nomEtapa":"Educació infantil","nomIlla":"Mallorca","nomMunicipi":"Calvià","telf1":"971405178","tipusCentreNomCa":"Escola infantil (entitats locals)"},{"adreca":"de la Vénda de Benirràs, 144 ","cif":"P0705000H","codiIlla":"074","codiMunicipi":"07050","codiOficial":"07014511","cp":"07810","esPublic":false,"latitud":39.058716,"longitud":1.4735842,"mail":"eibenirras@gmail.com","nom":"BENIRRÀS","nomEtapa":"Educació infantil","nomIlla":"Eivissa","nomMunicipi":"Sant Joan de Labritja","telf1":"607751175","tipusCentreNomCa":"Escola infantil (entitats locals)","web":"eibenirras.com"},{"adreca":"PALMA-ALCÚDIA, S/N ","cif":"S0718078I","codiIlla":"073","codiMunicipi":"07027","codiOficial":"07001551","cp":"07300","esPublic":true,"latitud":39.726715,"longitud":2.92174,"mail":"iesberenguerdanoia@educaib.eu","nom":"BERENGUER D'ANOIA","nomEtapa":"Educació secundària obligatòria, Prova d'accés a cicle de grau superior, Educació especial: Educació bàsica, Grau superior, Formació professional de grau bàsic, Prova de batxillerat per a l'accés a la Universitat, Batxillerat, Grau mitjà","nomIlla":"Mallorca","nomMunicipi":"Inca","telf1":"971501812","tipologia":"A","tipusCentreNomCa":"Institut d'educació secundària"},{"adreca":"DE SON MORERA, S/N ","cif":"S0718081C","codiIlla":"072","codiMunicipi":"07023","codiOficial":"07008387","cp":"07750","esPublic":true,"latitud":39.981216,"longitud":4.014489,"mail":"iesbielmarti@educaib.eu","nom":"BIEL MARTÍ","nomEtapa":"Educació secundària obligatòria, Formació professional de grau bàsic, Prova de batxillerat per a l'accés a la Universitat, Batxillerat, Grau mitjà","nomIlla":"Menorca","nomMunicipi":"Ferreries","telf1":"971374201","tipologia":"C","tipusCentreNomCa":"Institut d'educació secundària","web":"iesbielmarti.cat"},{"adreca":"FRANCESC DE BORJA MOLL, 30 ","cif":"P0700800F","codiIlla":"073","codiMunicipi":"07008","codiOficial":"07013255","cp":"07350","esPublic":false,"latitud":39.71813,"longitud":2.903117,"mail":"escoletamunicipal@ajbinissalem.net","nom":"BINIPETIT","nomEtapa":"Educació infantil","nomIlla":"Mallorca","nomMunicipi":"Binissalem","telf1":"971870390","tipusCentreNomCa":"Escola infantil (entitats locals)"},{"adreca":"Andreu Pol \"Niuer\", batle, s/n ","cif":"S0700051F","codiIlla":"073","codiMunicipi":"07008","codiOficial":"07013140","cp":"07350","esPublic":true,"latitud":39.684944,"longitud":2.83922,"mail":"iesbinissalem@educaib.eu","nom":"BINISSALEM","nomEtapa":"Educació secundària obligatòria, Prova de batxillerat per a l'accés a la Universitat, Batxillerat, Grau mitjà","nomIlla":"Mallorca","nomMunicipi":"Binissalem","telf1":"971886612","tipologia":"A","tipusCentreNomCa":"Institut d'educació secundària","web":"www.iesbinissalem.net"},{"adreca":"de Trepucó, s/n ","codiIlla":"072","codiMunicipi":"07032","codiOficial":"07015744","cp":"07703","esPublic":false,"latitud":39.867027,"longitud":4.2729974,"nom":"BINTAUFA","nomEtapa":"Educació especial: Educació bàsica, Educació especial: transició a la vida adulta","nomIlla":"Menorca","nomMunicipi":"Maó","tipusCentreNomCa":"Centre privat d'educació especial"},{"adreca":"d'es Celler, 44 ","cif":"R0700747I","codiIlla":"073","codiMunicipi":"07057","codiOficial":"07005416","cp":"07650","esPublic":false,"latitud":39.357975,"longitud":3.1275523,"mail":"info@bisbeverger.es","nom":"BISBE VERGER","nomEtapa":"Educació primària, Educació secundària obligatòria, Educació infantil","nomIlla":"Mallorca","nomMunicipi":"Santanyí","telf1":"971163085","tipusCentreNomCa":"Col·legi concertat","web":"www.bisbeverger.com"},{"adreca":"GOMEZ ULLA, S/N ","cif":"S0768127C","codiIlla":"073","codiMunicipi":"07057","codiOficial":"07005398","cp":"07650","esPublic":true,"latitud":39.357563,"longitud":3.1299448,"mail":"ceipblaibonet@educaib.eu","nom":"BLAI BONET","nomEtapa":"Educació primària, Educació infantil","nomIlla":"Mallorca","nomMunicipi":"Santanyí","telf1":"971653955","tipologia":"D","tipusCentreNomCa":"Col·legi d'educació infantil i primària","web":"http://cpblaibonet.net/"},{"adreca":"Itàlia, 2 ","cif":"49413924B","codiIlla":"074","codiMunicipi":"07054","codiOficial":"07014326","cp":"07840","esPublic":false,"latitud":38.988304,"longitud":1.5241112,"mail":"escoletablancanieves@hotmail.com","nom":"BLANCANIEVES","nomEtapa":"Educació infantil","nomIlla":"Eivissa","nomMunicipi":"Santa Eulària","telf1":"971330521","tipusCentreNomCa":"Centre d'educació infantil"},{"adreca":"CAULLS, 21 ","cif":"S0718139I","codiIlla":"073","codiMunicipi":"07036","codiOficial":"07002439","cp":"07141","esPublic":true,"latitud":39.60434,"longitud":2.6955664,"mail":"ceipblanquerna@educaib.eu","nom":"BLANQUERNA","nomEtapa":"Educació primària, Educació infantil","nomIlla":"Mallorca","nomMunicipi":"Marratxí","telf1":"971795170","tipologia":"C","tipusCentreNomCa":"Col·legi d'educació infantil i primària","web":"www.ceipblanquerna.cat"},{"adreca":"JAUME II, 89 ","cif":"B57473811","codiIlla":"073","codiMunicipi":"07027","codiOficial":"07015173","cp":"07300","esPublic":false,"latitud":39.72214,"longitud":2.8834708,"mail":"escoletablaucel@gmail.com","nom":"BLAUCEL","nomEtapa":"Educació infantil","nomIlla":"Mallorca","nomMunicipi":"Inca","telf1":"871714432","tipusCentreNomCa":"Centre d'educació infantil","web":"escoletablaucel.es"},{"adreca":"MESTRE ALBERTI, 1 ","cif":"S0700038C","codiIlla":"073","codiMunicipi":"07042","codiOficial":"07012858","cp":"07470","esPublic":true,"latitud":39.907207,"longitud":3.0778027,"mail":"ceipbocchoris@educaib.eu","nom":"BOCCHORIS","nomEtapa":"Educació primària, Educació infantil","nomIlla":"Mallorca","nomMunicipi":"Pollença","telf1":"971866129","tipologia":"D","tipusCentreNomCa":"Col·legi d'educació infantil i primària"},{"adreca":"SANTA AGNÈS, KM. 5 7","cif":"S0718115I","codiIlla":"074","codiMunicipi":"07046","codiOficial":"07004667","cp":"07820","esPublic":true,"latitud":38.99248,"longitud":1.3079473,"mail":"ceipbuscastell@educaib.eu","nom":"BUSCASTELL","nomEtapa":"Educació primària, Educació infantil","nomIlla":"Eivissa","nomMunicipi":"Sant Antoni de Portmany","telf1":"971345836","tipologia":"E","tipusCentreNomCa":"Col·legi d'educació infantil i primària"},{"adreca":"MARE DE DEU DE LES NEUS, 3 ","codiIlla":"073","codiMunicipi":"07010","codiOficial":"07013000","cp":"07110","esPublic":false,"latitud":39.696037,"longitud":2.7002013,"mail":"enavarroescoleta@ajbunyola.net","nom":"CA SES MONGES","nomEtapa":"Educació infantil","nomIlla":"Mallorca","nomMunicipi":"Bunyola","telf1":"971613524","tipusCentreNomCa":"Escola infantil (entitats locals)"},{"adreca":"Del Blat, s/n ","cif":"47631085V","codiIlla":"073","codiMunicipi":"07057","codiOficial":"07014053","cp":"07660","esPublic":false,"latitud":39.374107,"longitud":3.2269945,"mail":"eipcalador@ajsantanyi.net","nom":"CALA D'OR","nomEtapa":"Educació infantil","nomIlla":"Mallorca","nomMunicipi":"Santanyí","telf1":"971657203","tipusCentreNomCa":"Escola infantil (entitats locals)"},{"adreca":"es caló, s/n ","cif":"J16537797","codiIlla":"074","codiMunicipi":"07048","codiOficial":"07013841","cp":"07829","esPublic":false,"latitud":38.970596,"longitud":1.2818375,"mail":"escoletacaladebou@hotmail.com","nom":"CALA DE BOU","nomEtapa":"Educació infantil","nomIlla":"Eivissa","nomMunicipi":"Sant Josep de Sa Talaia","telf1":"971092004","tipusCentreNomCa":"Escola infantil (entitats locals)","web":"https:ecaladebou.blogspot.com"},{"adreca":"PLAÇA DE SANT MIQUEL, S/N ","cif":"Q0700642B","codiIlla":"073","codiMunicipi":"07057","codiOficial":"07012883","cp":"07669","esPublic":true,"latitud":39.39898,"longitud":3.2015705,"mail":"ceipcalonge@educaib.eu","nom":"CALONGE","nomEtapa":"Educació primària, Educació infantil","nomIlla":"Mallorca","nomMunicipi":"Santanyí","telf1":"971839119","tipologia":"E","tipusCentreNomCa":"Col·legi d'educació infantil i primària"},{"adreca":"LLUNA, 14 ","codiIlla":"073","codiMunicipi":"07058","codiOficial":"07015756","cp":"07314","esPublic":false,"latitud":39.771595,"longitud":2.9048357,"nom":"CALS MESTRES DE CAIMARI","nomEtapa":"Educació infantil","nomIlla":"Mallorca","nomMunicipi":"Selva","telf1":"971515663","tipusCentreNomCa":"Escola infantil (entitats locals)"},{"adreca":"SON PILLO, 1 ","cif":"S0718028D","codiIlla":"073","codiMunicipi":"07011","codiOficial":"07007899","cp":"07180","esPublic":true,"latitud":39.522797,"longitud":2.496332,"mail":"iescalvia@iescalvia.com","nom":"CALVIÀ","nomEtapa":"Educació secundària obligatòria, Prova d'accés a cicle de grau superior, Grau superior, Formació professional de grau bàsic, Prova de batxillerat per a l'accés a la Universitat, Batxillerat, Grau mitjà","nomIlla":"Mallorca","nomMunicipi":"Calvià","telf1":"971690229","tipologia":"A","tipusCentreNomCa":"Institut d'educació secundària","web":"www.iescalvia.com"},{"adreca":"Góngora, 24 ","cif":"Q0768275J","codiIlla":"073","codiMunicipi":"07011","codiOficial":"07008235","cp":"07181","esPublic":true,"mail":"cepacalvia@educaib.eu","nom":"CALVIÀ","nomEtapa":"Acollida lingüística , Grau superior, Educació secundària per a persones adultes, Ensenyaments inicials, Mòduls, Prova de batxillerat per a l'accés a la Universitat, Grau mitjà","nomIlla":"Mallorca","nomMunicipi":"Calvià","telf1":"971131350","tipologia":"C","tipusCentreNomCa":"Centre d'educació de persones adultes","web":"cepacalvia.com"},{"adreca":"de l'Església, 1 ","cif":"Q0700491D","codiIlla":"073","codiMunicipi":"07011","codiOficial":"07015011","cp":"07184","esPublic":false,"latitud":39.565895,"longitud":2.5068016,"mail":"EICALVIA@CALVIA.COM","nom":"CALVIÀ VILA","nomEtapa":"Educació infantil","nomIlla":"Mallorca","nomMunicipi":"Calvià","telf1":"971670023","tipusCentreNomCa":"Escola infantil (entitats locals)"},{"adreca":"PERU, 2 ","cif":"S0718170D","codiIlla":"073","codiMunicipi":"07040","codiOficial":"07005994","cp":"07007","esPublic":true,"latitud":39.56778,"longitud":2.669279,"mail":"ceipcamilojosecela@educaib.eu","nom":"CAMILO JOSE CELA","nomEtapa":"Educació primària, Educació especial: Educació bàsica, Educació infantil","nomIlla":"Mallorca","nomMunicipi":"Palma","telf1":"971240625","tipologia":"D","tipusCentreNomCa":"Col·legi d'educació infantil i primària","web":"www.ceipcamilojosecela.com"},{"adreca":"JOAN CAPO, S/N ","cif":"Q0768145E","codiIlla":"073","codiMunicipi":"07040","codiOficial":"07008223","cp":"07010","esPublic":true,"latitud":39.585495,"longitud":2.651605,"mail":"cepacamprodo@educaib.eu","nom":"CAMP RODÓ","nomEtapa":"Acollida lingüística , Educació secundària per a persones adultes, Ensenyaments inicials, Mòduls","nomIlla":"Mallorca","nomMunicipi":"Palma","telf1":"971753158","tipologia":"C","tipusCentreNomCa":"Centre d'educació de persones adultes","web":"www.cepacamprodo.cat"},{"adreca":"CAMI VELL D'INCA, s/n ","cif":"P0701200H","codiIlla":"073","codiMunicipi":"07012","codiOficial":"07013991","cp":"07310","esPublic":false,"latitud":39.771126,"longitud":2.959571,"mail":"eicampanet@ajcampanet.net","nom":"CAMPANET","nomEtapa":"Educació infantil","nomIlla":"Mallorca","nomMunicipi":"Campanet","telf1":"971877102","tipusCentreNomCa":"Escola infantil (entitats locals)"},{"adreca":"de l'Arxiduc Lluís Salvador, 83 ","codiIlla":"073","codiMunicipi":"07040","codiOficial":"07013747","cp":"07004","esPublic":false,"latitud":39.584167,"longitud":2.6570816,"mail":"eicanalonso@pmei.palma.cat","nom":"CAN ALONSO","nomEtapa":"Educació infantil","nomIlla":"Mallorca","nomMunicipi":"Palma","telf1":"971751975","tipusCentreNomCa":"Escola infantil (entitats locals)","web":"www.palmaescolesinfants.cat"},{"adreca":"FRANCESC SALVA I PIZA-ESCULTOR, s/n ","cif":"S0700118C","codiIlla":"073","codiMunicipi":"07036","codiOficial":"07015549","cp":"07141","esPublic":true,"latitud":39.59172,"longitud":2.6925797,"mail":"iescanbalo@educaib.eu","nom":"CAN BALO","nomEtapa":"Educació secundària obligatòria, Formació professional de grau bàsic, Educació secundària per a persones adultes, Ensenyaments inicials, Batxillerat, Grau mitjà","nomIlla":"Mallorca","nomMunicipi":"Marratxí","telf1":"971128945","tipologia":"D","tipusCentreNomCa":"Institut d'educació secundària","web":"http://iescanbalo.eduwebs.caib.es/"},{"adreca":"LLIMONERS, S/N ","cif":"G07786981","codiIlla":"074","codiMunicipi":"07046","codiOficial":"07004679","cp":"07820","esPublic":false,"latitud":38.971718,"longitud":1.3291955,"mail":"escolacanbonet@gmail.com","nom":"CAN BONET","nomEtapa":"Educació primària, Educació secundària obligatòria, Educació infantil","nomIlla":"Eivissa","nomMunicipi":"Sant Antoni de Portmany","telf1":"971342143","tipusCentreNomCa":"Col·legi concertat"},{"adreca":"MOSSÈN BARTOMEU OLIVER, 1 ","cif":"Q0768277F","codiIlla":"073","codiMunicipi":"07047","codiOficial":"07004758","cp":"07140","esPublic":true,"latitud":39.644657,"longitud":2.8972578,"mail":"ceipcanbril@educaib.eu","nom":"CAN BRIL","nomEtapa":"Educació primària, Educació infantil","nomIlla":"Mallorca","nomMunicipi":"Sencelles","telf1":"971872653","tipologia":"D","tipusCentreNomCa":"Col·legi d'educació infantil i primària","web":"https://sites.google.com/view/ceipcanbril/inici"},{"adreca":"JONDAL, D'ES, S/N ","cif":"Q0768232A","codiIlla":"074","codiMunicipi":"07026","codiOficial":"07007814","cp":"07800","esPublic":true,"latitud":38.908382,"longitud":1.4184809,"mail":"ceipcancanto@cancanto.org","nom":"CAN CANTÓ","nomEtapa":"Educació primària, Educació infantil","nomIlla":"Eivissa","nomMunicipi":"Eivissa","telf1":"971307278","tipologia":"D","tipusCentreNomCa":"Col·legi d'educació infantil i primària","web":"cancanto.org"},{"adreca":"des Cubells, 15 ","cif":"P0702600H","codiIlla":"074","codiMunicipi":"07026","codiOficial":"07014612","cp":"07800","esPublic":false,"latitud":38.908993,"longitud":1.4106488,"mail":"escoletacancanto@eivissa.es","nom":"CAN CANTÓ","nomEtapa":"Educació infantil","nomIlla":"Eivissa","nomMunicipi":"Eivissa","telf1":"971303672","tipusCentreNomCa":"Escola infantil (entitats locals)"},{"adreca":"SANTA AGNÈS, KM 1,5 ","cif":"S0718153J","codiIlla":"074","codiMunicipi":"07046","codiOficial":"07004680","cp":"07820","esPublic":true,"latitud":38.99507,"longitud":1.3113213,"mail":"ceipcancoix@educaib.eu","nom":"CAN COIX","nomEtapa":"Educació primària, Educació infantil","nomIlla":"Eivissa","nomMunicipi":"Sant Antoni de Portmany","telf1":"971344768","tipologia":"D","tipusCentreNomCa":"Col·legi d'educació infantil i primària","web":"www.ceipcancoix.blogspot.com"},{"adreca":"de Cas Ramons, s/n ","codiIlla":"074","codiMunicipi":"07046","codiOficial":"07015306","cp":"07820","esPublic":false,"latitud":38.98781,"longitud":1.3072909,"mail":"escoletacancoix@santantoni.net","nom":"CAN COIX","nomEtapa":"Educació infantil","nomIlla":"Eivissa","nomMunicipi":"Sant Antoni de Portmany","telf1":"971804179","tipusCentreNomCa":"Escola infantil (entitats locals)"},{"adreca":"PUJOL, DEN, 2 ","cif":"S0718158I","codiIlla":"074","codiMunicipi":"07048","codiOficial":"07007541","cp":"07817","esPublic":true,"latitud":38.894306,"longitud":1.3865948,"mail":"ceipcanguerxo@educaib.eu","nom":"CAN GUERXO","nomEtapa":"Educació primària, Educació infantil","nomIlla":"Eivissa","nomMunicipi":"Sant Josep de Sa Talaia","telf1":"971395017","tipologia":"D","tipusCentreNomCa":"Col·legi d'educació infantil i primària"},{"adreca":"Sant Carles (Vénda d'Arabí de Baix), Km 8 ","cif":"Q0700691I","codiIlla":"074","codiMunicipi":"07054","codiOficial":"07014922","cp":"07840","esPublic":true,"latitud":38.99504,"longitud":1.5433147,"mail":"cifpcanmarines@gmail.com","nom":"CAN MARINES","nomEtapa":"Grau superior, Prova de batxillerat per a l'accés a la Universitat, Grau mitjà","nomIlla":"Eivissa","nomMunicipi":"Santa Eulària","telf1":"971336073","tipologia":"D","tipusCentreNomCa":"Centre integrat de formació professional","web":"www.cifpcanmarines.es"},{"adreca":"DE CORONA, S/N ","cif":"S0718124A","codiIlla":"074","codiMunicipi":"07026","codiOficial":"07001393","cp":"07800","esPublic":true,"latitud":38.91512,"longitud":1.4188564,"mail":"ceipcanmisses@educaib.eu","nom":"CAN MISSES","nomEtapa":"Educació primària, Educació infantil","nomIlla":"Eivissa","nomMunicipi":"Eivissa","telf1":"971314376","tipologia":"C","tipusCentreNomCa":"Col·legi d'educació infantil i primària","web":"cpcanmisses.com"},{"adreca":"PICA-SOQUES, DEL, 42 Baixos","cif":"S0700128B","codiIlla":"074","codiMunicipi":"07048","codiOficial":"07015823","cp":"07817","esPublic":true,"latitud":38.886116,"longitud":1.3571311,"mail":"eicannebot@gmail.com","nom":"CAN NEBOT","nomEtapa":"Educació infantil","nomIlla":"Eivissa","nomMunicipi":"Sant Josep de Sa Talaia","telf1":"971753329","tipologia":"E","tipusCentreNomCa":"Escola infantil de primer cicle","web":"https://eicannebot.blogspot.com/"},{"adreca":"SERTORI, 2 ","cif":"S0718013F","codiIlla":"073","codiMunicipi":"07040","codiOficial":"07002610","cp":"07610","esPublic":true,"latitud":39.53832,"longitud":2.7151573,"mail":"ceipcanpastilla@educaib.eu","nom":"CAN PASTILLA","nomEtapa":"Educació primària, Educació infantil","nomIlla":"Mallorca","nomMunicipi":"Palma","telf1":"971265554","tipologia":"D","tipusCentreNomCa":"Col·legi d'educació infantil i primària","web":"http://www.cpcanpastilla.com"},{"adreca":"de Gaieta, s/n ","cif":"S0700025J","codiIlla":"073","codiMunicipi":"07044","codiOficial":"07008107","cp":"07420","esPublic":true,"latitud":39.776134,"longitud":3.0145454,"mail":"iescanpeublanc@educaib.eu","nom":"CAN PEU BLANC","nomEtapa":"Educació secundària obligatòria, Prova de batxillerat per a l'accés a la Universitat, Batxillerat","nomIlla":"Mallorca","nomMunicipi":"Sa Pobla","telf1":"971540812","tipologia":"B","tipusCentreNomCa":"Institut d'educació secundària","web":"iescanpeublanc.cat"},{"adreca":"CAN RASPALLS, S/N ","cif":"Q0700524B","codiIlla":"074","codiMunicipi":"07048","codiOficial":"07013361","cp":"07817","esPublic":true,"latitud":38.900112,"longitud":1.4019424,"mail":"direccio@ceipcanraspalls.com","nom":"CAN RASPALLS","nomEtapa":"Educació primària, Educació especial: Educació bàsica, Educació infantil","nomIlla":"Eivissa","nomMunicipi":"Sant Josep de Sa Talaia","telf1":"971303262","tipologia":"C","tipusCentreNomCa":"Col·legi d'educació infantil i primària","web":"http://cpcanraspalls.blogspot.com/"}]}